[
  {
    "id" : "first",
    "name" : "5. Element fine dinning",
    "image" : "https://lh5.googleusercontent.com/p/AF1QipPN-59ZwSrGbEPk6Ut5GIXhHU6gFts6OMdG6gf1=w408-h269-k-no",
    "latitude" : 43.14330198587581,
    "longitude" : 20.51537274233002
  },
  {
    "id" : "second",
    "name" : "Plava Laguna Restaurant & Caffe",
    "image" : "https://lh5.googleusercontent.com/p/AF1QipN9mozvuSzWT7cqy3zPTqjImNUqwYMUWj2lUh0E=w408-h272-k-no",
    "latitude" : 43.14055931430008,
    "longitude" : 20.509527500000004
  },
  {
    "id" : "third",
    "name" : "Doha restoran",
    "image" : "https://lh5.googleusercontent.com/p/AF1QipOAjAlL4grgiBTGd4iKDTTiYUHkj0-0xIykx89d=w426-h240-k-no",
    "latitude" : 43.14292781414842,
    "longitude" : 20.51557304233002
  },
  {
    "id" : "forth",
    "name" : "City Talk Caffe Restaurant",
    "image" : "https://lh5.googleusercontent.com/p/AF1QipNQpIsXuhV0XUXppjcHDzFfxxGwJn3tNZr1mJ7Q=w408-h544-k-no",
    "latitude" : 43.14318010108113,
    "longitude" : 20.5187464
  },
  {
    "id" : "fifth",
    "name" : "Restoran Balkan",
    "image" : "https://lh5.googleusercontent.com/p/AF1QipMZdP1vjicIMuizzyFhqRlewPCPZd-J0KN5EDlE=w408-h306-k-no",
    "latitude" : 43.133628802876736,
    "longitude" : 20.52075505116961
  }
]
